City,Cloudiness,Country,Date,Humidity,Lat,Lng,Max Temp,Wind Speed
Qaanaaq,0,GL,1540694609,100,77.48,-69.36,-7.88,9.64
Sitka,0,US,1540694610,44,37.17,-99.65,56.3,8.19
Hithadhoo,92,MV,1540694610,100,-0.6,73.08,78.03,8.75
Thompson,75,CA,1540692000,98,55.74,-97.86,32.0,8.05
Souillac,0,FR,1540693800,80,45.6,-0.6,39.2,9.17
Arraial do Cabo,88,BR,1540694611,97,-22.97,-42.02,72.68,12.88
Ancud,92,CL,1540694611,97,-41.87,-73.83,53.51,7.18
Noumea,0,NC,1540692000,40,-22.28,166.46,86.0,9.17
Atuona,0,PF,1540694612,100,-9.8,-139.03,79.52,17.25
Georgetown,0,GY,1540692000,88,6.8,-58.16,78.8,2.24
Saraland,1,US,1540694100,100,30.82,-88.07,55.4,3.27
Butaritari,12,KI,1540694613,100,3.07,172.79,85.77,11.77
Bilma,32,NE,1540694613,30,18.69,12.92,74.25,5.95
Punta Arenas,75,CL,1540692000,53,-53.16,-70.91,50.0,29.97
Aljezur,92,PT,1540694427,100,37.31,-8.8,54.68,24.18
Hermanus,0,ZA,1540694614,87,-34.42,19.24,59.09,2.82
Busselton,32,AU,1540694386,90,-33.64,115.35,66.38,5.17
Abapo,92,BO,1540694615,98,-18.83,-63.47,64.94,1.59
Kholm,92,RU,1540694616,93,57.15,31.18,40.55,13.67
Provideniya,24,RU,1540694616,100,64.42,-173.23,26.55,3.83
Saint-Philippe,90,CA,1540692900,97,45.36,-73.48,35.6,20.8
New Norfolk,75,AU,1540693800,62,-42.78,147.06,57.2,6.93
Mataura,80,NZ,1540694617,96,-46.19,168.86,52.97,4.16
Port Elizabeth,90,US,1540693020,100,39.31,-74.98,50.0,10.29
Puerto Ayora,12,EC,1540694618,100,-0.74,-90.35,70.52,8.52
Rikitea,56,PF,1540694618,100,-23.12,-134.97,73.22,13.22
Hobyo,12,SO,1540694619,100,5.35,48.53,73.62,5.17
Saint George,0,GR,1540691400,93,39.45,22.34,53.6,4.7
Cape Town,0,ZA,1540692000,87,-33.93,18.42,60.8,1.12
Albany,90,US,1540692660,81,42.65,-73.75,44.6,5.82
Ushuaia,40,AR,1540692000,52,-54.81,-68.31,46.4,16.11
Lorengau,12,PG,1540694620,99,-2.02,147.27,84.65,2.48
Nalut,8,LY,1540694620,90,31.86,10.98,57.6,8.41
Fruitvale,90,CA,1540692000,93,49.12,-117.55,42.8,1.7
Pocone,36,BR,1540694621,86,-16.26,-56.62,78.98,3.15
San Jose,20,PH,1540694593,58,15.79,120.99,85.73,4.16
Port Alfred,36,ZA,1540694622,97,-33.59,26.89,67.1,14.0
Fishers,90,US,1540692900,93,39.96,-86.01,50.0,3.36
Tiksi,56,RU,1540694623,77,71.64,128.87,17.6,17.92
Sao Joao da Barra,36,BR,1540694623,100,-21.64,-41.05,74.57,4.16
Castro,88,CL,1540694624,98,-42.48,-73.76,52.92,6.51
Rantoul,40,US,1540691760,87,40.31,-88.16,48.2,2.71
Kangalassy,40,RU,1540692000,84,62.35,129.97,6.8,2.82
Bluff,0,AU,1540694625,27,-23.58,149.07,101.07,4.72
San Vicente,40,SV,1540691400,100,13.64,-88.78,77.0,8.05
Erdenet,0,MN,1540694627,63,49.03,104.04,37.08,3.71
Hobart,75,AU,1540693800,54,-42.88,147.33,57.2,6.93
Hay River,40,CA,1540692000,100,60.82,-115.79,24.8,2.24
Ujfeherto,76,HU,1540694628,74,47.8,21.68,58.37,10.65
Banjar,76,ID,1540694628,85,-7.37,108.54,77.58,3.38
Ilulissat,36,GL,1540691400,86,69.22,-51.1,30.2,4.7
Linqing,0,CN,1540694629,29,36.85,115.71,65.84,9.98
Soyo,92,AO,1540694630,92,-6.13,12.37,77.18,3.15
Necochea,20,AR,1540694630,75,-38.55,-58.74,60.26,9.98
Mnogovershinnyy,92,RU,1540694630,97,53.94,139.92,39.15,11.99
Ponta do Sol,48,BR,1540694631,90,-20.63,-46.0,67.68,6.06
Kapaa,40,US,1540691760,65,22.08,-159.32,84.2,13.87
Stonehaven,40,GB,1540693200,86,56.96,-2.22,39.2,12.75
Winnemucca,1,US,1540691760,47,40.97,-117.74,59.0,8.05
Barrow,24,AR,1540694633,73,-38.31,-60.23,60.35,11.77
Touros,8,BR,1540694633,96,-5.2,-35.46,74.66,8.97
Mandera,56,ET,1540694633,85,3.94,41.86,71.1,2.71
Santa Ana,40,SV,1540691400,100,13.99,-89.56,69.8,8.05
Airai,0,TL,1540694634,36,-8.93,125.41,88.61,2.15
Shangqiu,0,CN,1540694635,30,34.42,115.65,70.02,10.09
Maragogi,64,BR,1540694635,96,-9.01,-35.22,73.49,9.19
Cidreira,80,BR,1540694635,96,-30.17,-50.22,62.37,7.63
Palmer,75,AU,1540693800,52,-34.85,139.16,68.0,12.75
Jamestown,92,AU,1540694636,100,-33.21,138.6,57.83,4.27
Urengoy,12,RU,1540694637,82,65.96,78.37,25.7,21.05
Bubaque,0,GW,1540694637,100,11.28,-15.83,82.62,4.38
Bealanana,36,MG,1540694637,92,-14.54,48.75,60.62,2.15
Coahuayana,24,MX,1540694638,75,18.62,-100.35,68.45,3.04
Dikson,92,RU,1540694638,100,73.51,80.55,26.55,33.58
Zarubino,88,RU,1540694638,100,42.65,131.06,47.7,9.19
Carnarvon,0,ZA,1540694639,26,-30.97,22.13,54.32,1.48
Cabedelo,20,BR,1540692000,78,-6.97,-34.84,77.0,4.7
Sao Gabriel,0,BR,1540694639,82,-30.34,-54.32,59.09,9.08
Ahipara,80,NZ,1540694639,86,-35.17,173.16,60.98,13.22
Mwinilunga,24,ZM,1540694640,43,-11.73,24.43,62.6,5.61
Serenje,0,ZM,1540694640,45,-13.23,30.22,60.75,11.21
Komsomolskiy,68,RU,1540694640,84,67.55,63.78,22.5,6.06
Maceio,0,BR,1540692000,83,-9.67,-35.74,73.4,5.82
Iquitos,0,PE,1540692000,88,-3.75,-73.25,77.0,2.24
Iqaluit,75,CA,1540692000,78,63.75,-68.52,15.8,23.04
Sainthia,88,IN,1540694642,69,23.95,87.68,77.22,4.38
Severo-Kurilsk,92,RU,1540694642,99,50.68,156.12,43.61,14.45
Vaini,0,IN,1540694643,38,15.34,74.49,76.95,5.28
Cherskiy,80,RU,1540694643,87,68.75,161.3,2.43,5.95
Upernavik,76,GL,1540694643,100,72.79,-56.15,23.22,22.28
Port Macquarie,90,AU,1540692000,63,-31.43,152.91,66.2,16.11
Ostrovnoy,56,RU,1540694644,81,68.05,39.51,24.71,12.44
Kibala,0,TD,1540692000,83,9.11,18.35,77.0,2.71
Kawalu,92,ID,1540694645,96,-7.38,108.21,71.73,2.93
Torbay,75,CA,1540692000,80,47.66,-52.73,35.6,6.93
Avarua,90,CK,1540692000,94,-21.21,-159.78,73.4,10.29
Selikhino,80,RU,1540694646,94,50.37,137.51,36.45,11.43
Faanui,44,PF,1540694646,100,-16.48,-151.75,81.63,9.42
Uusikaupunki,20,FI,1540693200,100,60.8,21.41,32.0,6.93
Thinadhoo,92,MV,1540694647,100,0.53,72.93,80.55,14.12
Tiznit,56,MA,1540694647,100,29.7,-9.73,63.05,8.41
Saldanha,20,PT,1540694648,92,41.42,-6.55,31.73,5.39
Matara,44,PE,1540694648,98,-13.74,-72.9,45.14,1.14
Guantanamo,56,BO,1540694648,88,-16.14,-62.05,73.13,4.38
Tigil,0,RU,1540694649,82,57.8,158.67,44.51,2.48
Praia da Vitoria,75,PT,1540692000,68,38.73,-27.07,64.4,16.13
Ritchie,0,ZA,1540692000,66,-29.03,24.6,66.2,6.93
Port Hedland,0,AU,1540690200,46,-20.31,118.58,89.6,8.05
Mar del Plata,8,AR,1540694476,60,-46.43,-67.52,54.95,6.62
Kodiak,1,US,1540691580,76,39.95,-94.76,55.4,4.7
Mahebourg,20,MU,1540692000,77,-20.41,57.7,64.4,4.7
Coihueco,0,CL,1540692000,87,-36.63,-71.83,59.0,2.24
Naze,20,NG,1540692000,94,5.43,7.07,77.0,6.17
Luanda,75,AO,1540692000,83,-8.83,13.24,78.8,6.93
Resavica,48,RS,1540694652,63,44.04,21.58,57.6,5.61
Sangar,48,RU,1540694652,66,63.92,127.47,16.38,3.6
Visnes,0,NO,1540693200,64,59.36,5.22,33.8,9.17
Bredasdorp,68,ZA,1540692000,88,-34.53,20.04,66.2,11.41
Erzincan,0,TR,1540691400,100,39.75,39.49,28.4,1.59
Guerrero Negro,0,MX,1540694654,76,27.97,-114.04,69.3,8.3
Shache,0,CN,1540694654,64,38.42,77.24,41.18,2.93
Devonport,20,AU,1540694654,65,-41.18,146.36,56.7,5.39
Paraiso,20,MX,1540690920,63,24.01,-104.61,60.8,6.93
Norman Wells,90,CA,1540692240,92,65.28,-126.83,23.0,4.7
Toktogul,44,KG,1540694655,64,41.87,72.95,29.3,1.7
Vardo,90,US,1540692900,87,39.62,-77.74,50.0,3.15
Pimenta Bueno,56,BR,1540694656,92,-11.68,-61.19,73.62,3.71
Jiaonan,0,CN,1540692000,36,35.88,119.98,60.8,6.71
Minna,56,NG,1540694656,92,9.62,6.55,73.4,2.37
Imbituba,75,BR,1540692000,93,-28.24,-48.67,62.6,10.29
Katsuura,75,JP,1540692000,62,33.93,134.5,59.0,18.34
Khyriv,92,UA,1540694657,98,49.53,22.85,46.58,7.18
Naron,56,ES,1540693800,100,43.52,-8.15,41.0,4.7
Vila Velha,40,BR,1540692000,74,-3.71,-38.6,80.6,8.05
Bambous Virieux,20,MU,1540692000,77,-20.34,57.76,64.4,4.7
Lasa,0,CY,1540693800,67,34.92,32.53,59.0,9.17
Kavaratti,0,IN,1540694659,96,10.57,72.64,86.36,3.15
Rancho Palos Verdes,20,US,1540693860,93,33.75,-118.37,77.0,4.7
Vila Franca do Campo,75,PT,1540693800,63,37.72,-25.43,62.6,10.29
Dirba,8,NG,1540694660,85,10.1,13.23,67.23,1.7
Tuktoyaktuk,90,CA,1540692000,100,69.44,-133.03,23.0,13.87
Hot Springs,1,US,1540691580,93,34.5,-93.06,55.4,3.36
Bodden Town,20,KY,1540692000,88,19.28,-81.25,80.6,10.09
Beloha,12,MG,1540694661,90,-25.17,45.06,62.82,8.08
Shingu,40,JP,1540692000,52,33.72,135.99,66.2,10.29
Progreso,40,UY,1540692000,82,-34.68,-56.22,60.8,6.93
Sergeyevka,80,KZ,1540694662,91,53.88,67.42,34.34,13.67
Balao,32,EC,1540694663,99,-2.91,-79.82,68.72,2.15
Hilo,75,US,1540691760,74,19.71,-155.08,80.6,8.05
Makakilo City,40,US,1540691820,58,21.35,-158.09,84.2,10.29
Chapais,1,CA,1540692000,58,49.78,-74.86,24.8,9.17
Avera,1,US,1540691700,81,33.19,-82.53,57.2,5.82
Taoudenni,0,ML,1540694664,38,22.68,-3.98,62.06,2.71
Lebu,0,ET,1540694665,85,8.96,38.73,38.93,2.59
General Roca,0,AR,1540692000,56,-39.03,-67.58,68.0,5.82
Jalu,0,LY,1540694666,43,29.03,21.55,64.62,12.88
Homnabad,0,IN,1540694667,42,17.77,77.13,77.67,5.95
San Patricio,0,PY,1540694667,76,-26.98,-56.83,60.03,3.6
Saskylakh,92,RU,1540694667,91,71.97,114.09,29.75,20.15
Mount Pleasant,1,US,1540692900,93,33.16,-94.97,62.6,3.27
Kavieng,44,PG,1540694668,100,-2.57,150.8,83.88,5.39
Nargana,88,PA,1540694668,100,9.44,-78.59,80.51,1.59
Banda Aceh,68,ID,1540694669,96,5.56,95.32,80.15,1.92
Hammerfest,76,NO,1540693200,86,70.66,23.68,30.2,5.82
Kungurtug,0,RU,1540694669,63,50.6,97.53,25.07,4.05
Ribeira Grande,8,PT,1540694670,100,38.52,-28.7,66.87,14.79
Swellendam,32,ZA,1540692000,88,-34.02,20.44,66.2,11.41
Gravdal,0,NO,1540693200,64,59.79,5.78,33.8,9.17
East London,36,ZA,1540694400,100,-33.02,27.91,68.67,20.27
Oranjestad,20,AW,1540692000,83,12.52,-70.03,82.4,17.22
Bereznik,0,RU,1540694672,75,62.86,42.71,13.77,3.71
Cap-aux-Meules,90,CA,1540692000,60,47.38,-61.86,39.2,12.75
Shanghai,0,CN,1540690200,42,31.23,121.49,66.2,6.71
Hofn,92,IS,1540694672,100,64.25,-15.21,40.01,25.08
Narsaq,80,GL,1540691400,93,60.91,-46.05,32.0,10.29
Kikwit,76,CD,1540694673,97,-5.04,18.82,70.43,3.15
Bandarbeyla,92,SO,1540694673,100,9.49,50.81,75.74,5.73
Wukari,56,NG,1540694674,91,7.87,9.78,75.29,2.93
Pisco,75,PE,1540692000,82,-13.71,-76.2,64.4,12.75
Cabo San Lucas,5,MX,1540691100,78,22.89,-109.91,78.8,3.94
Ilukste,68,LV,1540694675,96,55.98,26.3,42.03,15.68
Vilhena,24,BR,1540694675,92,-12.74,-60.15,72.45,1.36
Lazaro Cardenas,5,MX,1540690980,51,28.39,-105.62,60.8,3.36
Angoram,80,PG,1540694676,65,-4.06,144.07,88.2,1.81
San Cristobal,75,EC,1540692000,76,-0.39,-78.55,53.6,8.05
Tasiilaq,76,GL,1540691400,86,65.61,-37.64,30.2,27.51
Arlit,88,NE,1540694677,46,18.74,7.39,79.25,2.93
Tursunzoda,75,UZ,1540692000,59,38.51,68.23,60.8,2.24
Kailua,75,US,1540691820,74,21.39,-157.74,84.2,9.17
Pringsewu,32,ID,1540694677,90,-5.36,104.98,81.27,2.93
Kantang,20,TH,1540692000,70,7.42,99.52,86.0,8.05
Lagoa,0,PT,1540693800,62,37.14,-8.45,53.6,18.34
LOS ALGARROBOS,75,EC,1540692000,78,-3.25,-79.94,71.6,4.7
Cacu,36,BR,1540694679,97,-18.56,-51.13,67.91,5.73
Kuminskiy,0,RU,1540694679,77,58.67,66.57,29.3,6.51
Punta Alta,0,AR,1540692000,63,-27.46,-55.82,66.2,5.82
Isiro,8,CD,1540694680,99,2.77,27.62,68.54,1.7
Woodstock,90,CA,1540692900,99,43.13,-80.75,35.6,9.17
Fez,75,MA,1540693800,81,34.03,-5.02,53.6,19.46
Pescara,48,IT,1540691400,46,42.46,14.21,71.6,5.82
Faya,0,SA,1540692000,93,18.39,42.45,60.8,3.49
Weligama,56,LK,1540694682,100,5.97,80.42,79.7,11.88
Ilhabela,24,BR,1540694682,94,-23.78,-45.36,73.62,13.67
Wladyslawowo,20,PL,1540693800,93,54.79,18.4,35.6,4.7
Vestmannaeyjar,92,IS,1540694683,100,63.44,-20.27,41.13,33.13
Sopron,75,HU,1540693200,93,47.68,16.6,46.4,4.7
Chokurdakh,76,RU,1540694683,79,70.62,147.9,12.78,10.76
Warman,20,CA,1540692000,48,52.32,-106.58,32.0,8.05
Vrangel,44,RU,1540694684,100,42.73,133.08,48.65,10.65
Tuatapere,88,NZ,1540694684,100,-46.13,167.69,49.1,2.04
Broken Arrow,1,US,1540692900,71,36.05,-95.79,62.6,4.7
Benito Juarez,0,MX,1540694685,37,28.64,-111.57,78.12,8.3
Deputatskiy,0,RU,1540694686,63,69.3,139.9,-4.37,4.94
Khatanga,44,RU,1540694686,92,71.98,102.47,33.03,14.67
Oistins,40,BB,1540692000,88,13.07,-59.53,75.2,4.7
Qasigiannguit,36,GL,1540691400,86,68.82,-51.19,30.2,4.7
Nabire,20,ID,1540694687,60,-3.36,135.5,84.78,2.71
Pevek,36,RU,1540694688,100,69.7,170.27,15.98,12.66
Lamar,1,US,1540691580,71,38.09,-102.62,51.8,5.82
Hoquiam,90,US,1540694040,100,46.98,-123.89,51.8,6.93
Meulaboh,24,ID,1540694688,100,4.14,96.13,80.15,2.82
Ibra,24,OM,1540694689,93,22.69,58.55,64.62,1.03
Bure,8,NG,1540694689,83,10.52,10.33,70.38,3.15
Nome,1,US,1540692900,77,30.04,-94.42,66.2,3.36
Smithers,75,CA,1540692000,76,54.78,-127.17,39.2,3.94
Castelo,24,BR,1540694691,94,-20.6,-41.2,65.57,2.59
Riyadh,75,SA,1540692000,82,24.63,46.72,68.0,8.05
Vilyuysk,44,RU,1540694691,83,63.75,121.63,22.46,6.96
Xichang,12,CN,1540694691,68,27.88,102.25,47.7,1.92
Kangaatsiaq,92,GL,1540694692,93,68.31,-53.46,33.17,11.1
Lubango,64,AO,1540694692,64,-14.92,13.49,63.59,3.71
Chuy,64,UY,1540694692,90,-33.69,-53.46,58.55,7.63
Requena,40,ES,1540693800,87,39.49,-1.1,51.8,2.24
Yellowknife,90,CA,1540693980,92,62.45,-114.38,30.2,8.05
Drumheller,0,CA,1540694694,48,51.47,-112.7,32.13,4.16
Gedo,64,ET,1540694694,74,9.01,37.45,51.26,2.71
Vanimo,48,PG,1540694694,100,-2.67,141.3,79.92,8.19
Walvis Bay,12,NA,1540694695,93,-22.95,14.51,65.48,2.93
Antofagasta,90,CL,1540692000,67,-23.65,-70.4,60.8,5.82
Ust-Ishim,80,RU,1540694696,85,57.69,71.17,36.27,6.85
Stabat,88,ID,1540694696,99,3.76,98.46,78.12,3.6
Santa Isabel do Rio Negro,8,BR,1540694696,88,-0.41,-65.02,80.28,2.82
Nikolsk,88,RU,1540694697,82,59.53,45.45,29.07,2.37
Sao Filipe,24,CV,1540694697,100,14.9,-24.5,77.36,12.44
Bethel,40,US,1540691580,55,60.79,-161.76,33.8,18.34
Kiunga,88,PG,1540694698,69,-6.12,141.3,86.18,3.04
Nakatsu,75,JP,1540692000,51,33.6,131.19,62.6,11.41
Wajima,75,JP,1540692000,71,37.4,136.9,57.2,10.29
Qobu,0,AZ,1540692000,93,40.4,49.71,42.8,2.24
Dibrugarh,75,IN,1540693800,88,27.48,94.9,69.8,3.36
Jingdezhen,0,CN,1540694700,69,29.29,117.2,67.28,4.27
Kahului,40,US,1540691760,74,20.89,-156.47,82.4,23.04
Revelstoke,90,CA,1540693680,100,50.99,-118.19,41.0,1.59
Axim,20,GH,1540694701,100,4.87,-2.24,80.42,8.19
Tromso,40,NO,1540691400,92,69.65,18.96,26.6,2.24
Ornes,0,FR,1540693800,86,49.25,5.47,39.2,11.41
Phalombe,68,MW,1540694702,93,-15.81,35.65,55.13,2.59
Codrington,48,AU,1540694702,60,-28.95,153.24,72.9,6.73
Mogok,88,MM,1540694703,99,22.92,96.51,66.15,2.37
Nikolskoye,75,RU,1540692000,93,59.7,30.79,35.6,15.66
Ojhar,0,IN,1540694704,43,20.09,73.93,76.37,5.39
Gizo,0,IL,1540693200,45,31.8,34.94,62.6,5.82
Alvorada,0,BR,1540692000,82,-30.0,-51.08,62.6,5.82
Northam,8,GB,1540691400,69,51.04,-4.21,39.2,5.82
Staryy Nadym,64,RU,1540694705,88,65.61,72.68,26.82,10.87
Nantucket,90,US,1540693080,93,41.28,-70.1,60.8,12.75
Kazachinskoye,0,RU,1540694706,67,57.69,93.28,38.7,6.51
Leningradskiy,0,RU,1540694706,100,69.38,178.42,13.77,4.72
Mukhen,56,RU,1540694706,62,48.19,136.14,34.88,7.52
Sarab,0,IR,1540694707,94,38.61,44.99,25.16,2.59
Poshekhonye,92,RU,1540694707,97,58.5,39.12,31.82,11.99
Nanortalik,88,GL,1540694707,94,60.14,-45.24,34.92,14.0
Salekhard,32,RU,1540694707,74,66.54,66.62,18.45,7.4
Vestmanna,76,FO,1540693200,86,62.16,-7.17,30.2,2.24
Santo Antonio do Leverger,0,BR,1540692000,94,-15.87,-56.08,73.4,8.05
Ust-Koksa,0,RU,1540694708,70,50.27,85.62,21.11,2.04
Moose Factory,1,CA,1540692000,79,51.26,-80.61,28.4,6.93
Zelenoborsk,36,RU,1540694709,84,61.47,64.05,28.76,6.85
Udachnyy,92,RU,1540694709,84,66.42,112.4,32.63,8.97
Geraldton,90,CA,1540692000,80,49.72,-86.95,35.6,4.7
Medzilaborce,92,SK,1540694710,100,49.27,21.9,45.05,3.15
Poum,20,MK,1540693800,87,41.28,20.71,46.4,3.36
Srednekolymsk,68,RU,1540694711,72,67.46,153.71,8.82,7.29
Sabang,68,PH,1540694711,90,13.72,123.58,81.27,19.26
Westport,0,IE,1540694551,100,53.8,-9.52,38.39,6.62
Astana,90,KZ,1540692000,93,51.13,71.43,46.4,13.42
Labuhan,12,ID,1540694712,78,-2.54,115.51,84.33,2.37
Longyearbyen,75,NO,1540691400,73,78.22,15.63,19.4,9.17
Mackay,20,CA,1540692000,51,53.65,-115.58,37.4,5.82
Bathsheba,40,BB,1540692000,88,13.22,-59.52,75.2,4.7
Swidnica,0,PL,1540693800,86,50.84,16.49,41.0,2.24
Blythe,1,US,1540691520,20,33.61,-114.59,82.4,3.36
Sibolga,20,ID,1540694463,90,1.74,98.78,77.22,0.69
Luderitz,24,NA,1540692000,41,-26.65,15.16,78.8,2.24
Batagay-Alyta,20,RU,1540694714,48,67.8,130.41,-10.04,2.71
Sao Miguel do Araguaia,12,BR,1540694715,85,-13.28,-50.16,79.43,7.4
Kununurra,0,AU,1540693800,17,-15.77,128.74,104.0,6.93
Rawson,0,AR,1540694715,59,-43.3,-65.11,55.49,9.75
Cardston,75,CA,1540692000,42,49.2,-113.32,44.6,23.04
Winfield,90,US,1540692900,100,41.41,-87.28,48.2,2.71
Alofi,92,NU,1540692000,88,-19.06,-169.92,78.8,4.7
Valparaiso,90,US,1540692900,75,41.47,-87.06,48.2,2.71
Mackenzie,1,CA,1540692000,69,55.34,-123.09,37.4,2.24
Kieta,32,PG,1540694717,99,-6.22,155.63,82.22,5.17
Acapulco,40,MX,1540691160,78,16.86,-99.88,82.4,4.7
Nanchang,0,CN,1540694718,57,28.68,115.89,70.02,4.05
Ampanihy,88,MG,1540694718,95,-24.69,44.75,62.96,9.42
Yerbogachen,8,RU,1540694719,85,61.28,108.01,32.9,7.07
Iquique,75,CL,1540692000,77,-20.22,-70.14,64.4,10.29
Dwarka,0,IN,1540693800,77,28.58,77.04,68.0,3.83
Marsa Matruh,0,EG,1540694720,80,31.35,27.25,50.22,4.94
Lompoc,90,US,1540694280,93,34.64,-120.46,62.6,3.36
San,0,ML,1540694720,80,13.3,-4.9,67.5,2.26
Nederland,1,US,1540692900,100,29.97,-93.99,73.4,7.74
Benghazi,20,LY,1540691400,52,32.12,20.07,68.0,28.21
Alterosa,56,BR,1540694721,86,-21.25,-46.14,68.45,7.4
Raudeberg,12,NO,1540693200,100,61.99,5.14,32.0,3.36
Richards Bay,80,ZA,1540694722,99,-28.77,32.06,65.52,3.49
Moissala,0,TD,1540694722,88,8.34,17.77,72.18,3.15
Beringovskiy,80,RU,1540694723,100,63.05,179.32,31.5,6.73
Rondonopolis,8,BR,1540694723,93,-16.46,-54.64,72.77,2.71
Honiara,40,SB,1540692000,74,-9.43,159.96,86.0,9.17
Tabas,92,IR,1540694724,87,33.6,56.92,58.19,3.38
Halvad,0,IN,1540694724,38,23.02,71.18,79.79,2.93
Hasaki,40,JP,1540692000,64,35.73,140.83,68.0,13.87
Tafresh,92,IR,1540694725,95,34.69,50.01,42.8,2.93
Tungor,92,RU,1540694725,98,53.39,142.95,42.93,29.1
Billings,1,US,1540691580,37,45.79,-108.5,53.6,18.34
Buraydah,40,SA,1540692000,59,26.33,43.97,62.6,14.99
Auki,0,NG,1540694726,84,12.18,6.51,71.37,2.82
Kita,75,JP,1540692000,59,35.76,139.74,68.0,6.93
Port Hawkesbury,90,CA,1540692780,98,45.62,-61.36,35.6,13.87
Tonantins,44,BR,1540694727,90,-2.86,-67.77,77.67,3.6
Virginia Beach,90,US,1540693260,87,36.85,-75.98,57.2,12.75
Santa Maria,0,BR,1540692000,82,-29.69,-53.81,62.6,8.05
Talnakh,88,RU,1540694729,93,69.49,88.39,29.03,21.72
Puerto Carreno,12,CO,1540694729,93,6.19,-67.49,71.51,2.93
Mandali,0,IQ,1540694729,86,33.75,45.55,48.2,2.71
Lufilufi,12,WS,1540694730,97,-13.87,-171.6,84.42,10.42
Benatky nad Jizerou,40,CZ,1540693800,93,50.29,14.82,42.8,8.05
Komsomolets,92,RU,1540694731,96,52.77,41.29,44.69,17.81
Dakar,0,SN,1540694731,100,14.69,-17.45,79.2,12.21
Victoria,75,BN,1540693800,94,5.28,115.24,86.0,1.12
Boueni,20,YT,1540692000,88,-12.9,45.08,75.2,3.36
Najran,0,SA,1540692000,35,17.54,44.22,69.8,2.37
Sukhaya Buyvola,0,RU,1540692000,65,45.15,43.0,44.6,11.18
Batticaloa,80,LK,1540694733,100,7.71,81.69,76.05,10.87
Kodinar,0,IN,1540694478,64,20.79,70.7,79.2,3.38
Sabara,0,BR,1540694733,64,-24.25,-48.48,62.1,9.75
La Ronge,90,CA,1540692000,100,55.1,-105.3,33.8,6.93
Inirida,20,CO,1540694734,94,3.87,-67.92,76.5,2.48
Nador,24,MA,1540693800,63,35.17,-2.93,62.6,19.46
Pacocha,75,EC,1540692000,88,-1.05,-80.87,73.4,5.82
Sisimiut,92,GL,1540694735,100,66.94,-53.67,24.3,1.92
San Francisco de Macoris,40,DO,1540692000,88,19.3,-70.25,78.8,4.7
Pacific Grove,1,US,1540694100,60,36.62,-121.92,69.8,9.17
Shubarshi,0,KZ,1540694736,88,48.59,57.19,30.33,9.64
Port Lincoln,92,AU,1540694736,84,-34.72,135.86,64.04,7.96
Grindavik,90,IS,1540692000,100,63.84,-22.43,42.8,36.91
Angoche,12,MZ,1540694737,100,-16.23,39.91,76.37,14.67
Kudat,75,MY,1540692000,74,6.89,116.84,86.0,4.7
Parapotamos,40,GR,1540693200,82,39.55,20.32,68.0,11.41
Kaitangata,92,NZ,1540694738,100,-46.28,169.85,48.65,7.96
Kualakapuas,0,ID,1540694738,77,-3.01,114.39,87.53,3.38
Lethem,0,GY,1540694738,54,3.38,-59.8,85.64,14.67
Atbasar,92,KZ,1540694739,100,51.81,68.36,36.14,19.04
Leh,20,IN,1540694739,60,34.16,77.58,-8.73,1.92
Anchorage,90,US,1540691760,75,61.22,-149.89,46.4,2.82
Lodingen,0,NO,1540693200,92,68.41,16.0,23.0,1.7
Calama,0,CL,1540692000,18,-22.46,-68.93,51.8,9.17
Andreapol,92,RU,1540694740,93,56.65,32.27,39.87,15.01
Gornopravdinsk,48,RU,1540694741,77,60.06,69.92,31.05,5.61
Merauke,12,ID,1540694741,92,-8.49,140.4,83.93,11.21
Yenagoa,48,NG,1540694741,98,4.92,6.26,73.85,3.49
Aswan,0,EG,1540694742,78,24.09,32.9,60.89,8.63
Mirnyy,88,RU,1540694742,95,56.57,36.46,41.81,16.02
Bratsk,0,RU,1540692000,44,56.15,101.63,39.2,2.24
Kananga,68,CD,1540694742,96,-5.9,22.41,71.55,2.48
Chipinge,0,ZW,1540694743,89,-20.19,32.62,55.08,2.59
Coquimbo,0,CL,1540692000,93,-29.95,-71.34,53.6,6.93
Zakamensk,0,RU,1540694743,68,50.38,103.29,32.99,2.59
Pelym,64,RU,1540694744,84,61.01,62.0,31.05,5.06
Clyde River,1,CA,1540692000,84,70.47,-68.59,1.4,16.11
Pushchino,75,RU,1540692000,93,54.83,37.61,42.8,8.95
Macon,1,US,1540691760,87,32.84,-83.63,55.4,6.93
Gao,0,ML,1540694745,46,16.28,-0.04,67.28,5.73
Wagar,0,US,1540694745,80,31.44,-87.99,54.72,2.37
Ostroleka,76,PL,1540694746,82,53.09,21.58,37.85,5.17
Kalmunai,48,LK,1540694746,96,7.42,81.82,77.85,8.3
Port Hardy,90,CA,1540692000,81,50.7,-127.42,48.2,23.04
Lamu,36,ID,1540694747,75,0.57,122.3,84.83,2.93
Raton,1,US,1540691640,57,36.9,-104.44,64.4,4.7
Teseney,0,ER,1540694747,60,15.11,36.66,68.99,6.85
Prince Albert,75,CA,1540692000,69,53.2,-105.75,39.2,10.29
Aklavik,90,CA,1540692000,92,68.22,-135.01,23.0,4.7
Colquechaca,88,BO,1540694748,95,-18.7,-66.0,48.11,0.92
Nynashamn,64,SE,1540693200,80,58.9,17.95,33.8,10.29
Krumovgrad,36,BG,1540694529,91,41.47,25.65,59.45,11.1
Emba,0,CY,1540693800,67,34.81,32.42,59.0,9.17
Paamiut,88,GL,1540694749,100,61.99,-49.67,36.32,36.04
Krutinka,92,RU,1540694750,95,56.01,71.51,37.94,12.55
Teguldet,8,RU,1540694750,59,57.31,88.17,43.25,8.63
Shimoda,20,JP,1540692000,68,34.7,138.93,66.2,4.7
Alto Araguaia,0,BR,1540694751,91,-17.32,-53.22,71.37,5.73
San Juan,20,PR,1540691760,78,18.47,-66.12,80.6,6.93
Hualmay,36,PE,1540694752,99,-11.1,-77.61,56.39,4.83
Kaabong,12,UG,1540694752,92,3.51,34.14,58.37,2.37
Mchinji,0,MW,1540694753,75,-13.8,32.89,58.32,6.85
Iskateley,56,RU,1540694753,93,67.68,53.15,21.83,9.75
Constitucion,20,MX,1540690920,63,23.99,-104.67,60.8,6.93
Ixtapa,75,MX,1540691040,83,20.71,-105.21,82.4,3.36
Edd,0,ER,1540694754,69,13.93,41.69,65.12,2.15
Atar,44,MR,1540694754,29,20.52,-13.05,77.99,6.73
Saryg-Sep,8,RU,1540694755,78,51.49,95.55,23.58,1.59
Marquette,90,US,1540693080,86,46.54,-87.4,41.0,9.17
Laguna,5,MX,1540691220,50,27.52,-110.01,78.8,2.24
Luan,75,CH,1540693200,93,46.36,6.98,41.0,5.82
Mount Gambier,0,AU,1540694756,68,-37.83,140.78,62.87,2.59
Pangnirtung,88,CA,1540694757,98,66.15,-65.72,23.13,6.17
Baoqing,12,CN,1540694757,57,46.32,132.2,38.07,10.42
Beisfjord,68,NO,1540693200,92,68.38,17.6,23.0,1.92
Fort Nelson,5,CA,1540692000,70,58.81,-122.69,32.0,3.36
Saint-Pierre,68,FR,1540693800,93,48.95,4.24,39.2,8.05
Brokopondo,40,SR,1540692000,88,5.06,-54.98,80.6,3.36
Flinders,75,AU,1540692000,42,-34.58,150.85,64.4,8.05
Litovko,80,RU,1540694759,78,49.24,135.18,33.75,7.4
Boende,76,CD,1540694759,99,-0.28,20.88,73.53,2.15
Erenhot,36,CN,1540694760,49,43.65,111.97,44.1,21.61
Hamilton,75,BM,1540691700,69,32.3,-64.78,75.2,19.46
Caxito,80,BR,1540694761,94,-22.65,-42.51,71.51,6.62
Oxelosund,90,SE,1540693200,86,58.67,17.1,35.6,11.41
Machaneng,0,BW,1540694761,51,-23.19,27.49,58.28,3.49
Gadung,0,ID,1540694761,83,-7.32,112.63,87.48,3.6
Sajanan,92,TN,1540692000,38,37.06,9.24,73.4,9.17
Zima,0,RU,1540694762,65,53.93,102.05,39.29,2.59
Tando Muhammad Khan,0,PK,1540694762,45,25.12,68.53,75.78,2.71
Henties Bay,44,NA,1540694763,75,-22.12,14.28,69.26,4.05
Nambutalai,32,IN,1540694763,100,9.72,79.0,80.69,21.72
Ballina,0,IE,1540694763,100,54.11,-9.15,34.92,6.62
Manggar,56,ID,1540694764,87,-2.88,108.27,85.91,4.38
Carballo,76,ES,1540693800,100,43.21,-8.69,41.0,4.7
Farafangana,92,MG,1540694764,100,-22.82,47.83,64.94,3.49
Tateyama,75,JP,1540692000,72,36.66,137.31,59.0,6.93
Saint-Augustin,0,FR,1540693800,80,44.83,-0.61,41.0,9.17
Stromness,90,CA,1540692900,100,42.87,-79.55,39.2,14.99
Colesberg,0,ZA,1540694766,47,-30.72,25.1,51.98,3.71
Rudraprayag,0,IN,1540694766,49,30.29,78.98,53.24,2.37
Rockingham,75,GB,1540693200,93,52.52,-0.72,41.0,10.29
Camacha,40,PT,1540693800,68,33.08,-16.33,64.4,16.11
Hami,0,CN,1540694768,42,42.84,93.51,48.74,9.31
Mabaruma,64,GY,1540694768,91,8.2,-59.78,79.25,5.84
Bondeno,20,IT,1540693200,53,44.89,11.41,71.6,11.41
Sawtell,75,AU,1540693800,73,-30.38,153.1,69.8,21.92
Jawhar,0,IN,1540694769,41,19.91,73.23,83.57,5.06
Misratah,0,LY,1540694687,100,32.38,15.09,68.13,15.23
Lodja,48,CD,1540694769,95,-3.52,23.6,70.88,2.26
San Lorenzo,0,PY,1540692000,82,-25.34,-57.51,64.4,6.93
Cartagena,0,ES,1540693800,50,37.63,-1.0,57.2,12.75
Neryungri,76,RU,1540694771,64,56.66,124.71,19.49,16.8
Fairbanks,90,US,1540692360,93,64.84,-147.72,32.0,2.93
Levelland,1,US,1540691580,55,33.59,-102.38,64.4,10.29
Umm Kaddadah,0,SD,1540694773,33,13.6,26.69,70.34,11.99
Malanje,48,AO,1540694773,95,-9.54,16.35,62.06,2.37
Wyndham,0,GB,1540693200,88,51.61,-3.54,39.2,9.17
Klaksvik,88,FO,1540693200,86,62.23,-6.59,30.2,2.24
Bakersfield,1,US,1540694100,38,35.37,-119.02,75.2,4.7
Beverley,8,GB,1540693200,70,53.84,-0.43,46.4,12.75
Goure,0,NE,1540694774,67,13.98,10.27,72.77,2.82
Bilibino,88,RU,1540694775,76,68.06,166.44,4.37,2.26
Yar-Sale,88,RU,1540694775,100,66.83,70.83,24.57,12.55
Lusambo,24,CD,1540694775,96,-4.97,23.44,72.0,2.26
Nouakchott,76,MR,1540694776,98,18.08,-15.98,73.35,16.46
Salalah,20,OM,1540691400,78,17.01,54.1,75.2,4.7
Bandar,8,ID,1540694776,88,-4.2,104.14,85.68,2.82
Rio Claro,0,BR,1540692000,100,-22.41,-47.56,66.2,3.36
Zhuhai,0,CN,1540692000,29,40.71,112.04,50.0,17.9
Claveria,24,PH,1540694777,89,8.61,124.89,78.48,3.94
Paharpur,0,PK,1540694778,75,32.1,70.97,65.75,3.04
Joshimath,0,IN,1540694778,63,30.57,79.57,6.08,1.36
Opuwo,44,NA,1540694778,90,-18.06,13.84,59.58,2.37
Santa Isabel,40,CO,1540692000,100,4.71,-75.1,71.6,3.36
Yuksekova,0,TR,1540692000,80,37.57,44.29,35.6,6.93
Shelburne,90,CA,1540694100,100,44.08,-80.2,33.8,3.36
Celestun,0,MX,1540694780,100,20.87,-90.4,81.0,20.15
Benguela,80,AO,1540694781,100,-12.58,13.4,76.91,7.85
Akdepe,75,TM,1540692000,86,42.05,59.39,41.0,11.41
Tilichiki,92,RU,1540694781,97,60.47,166.1,37.13,4.5
Farmington,1,US,1540691580,33,36.73,-108.21,57.2,5.82
Cranbrook,75,CA,1540692000,70,49.51,-115.76,42.8,6.93
Pankrushikha,48,RU,1540694783,46,53.83,80.35,47.39,17.25
Bireun,32,ID,1540694783,100,5.2,96.7,80.73,2.59
Kirkwall,76,GB,1540693200,75,58.98,-2.96,44.6,13.87
Paoua,64,CF,1540694784,89,7.24,16.43,69.93,2.71
Petawawa,90,CA,1540692780,86,45.89,-77.27,33.8,5.82
Waipawa,68,NZ,1540694784,76,-39.94,176.59,62.24,3.71
Egvekinot,80,RU,1540694785,71,66.32,-179.17,5.9,2.37
Buluang,75,PH,1540692000,62,10.47,123.98,86.0,3.36
Lengshuitan,0,CN,1540694785,75,26.41,111.6,68.58,4.27
Mangrol,0,IN,1540694786,50,25.33,76.51,74.39,4.38
Ca Mau,80,VN,1540694786,100,9.18,105.15,78.57,6.17
Dubbo,92,AU,1540692000,33,-32.25,148.6,75.2,6.93
Tres Passos,0,BR,1540694787,92,-27.46,-53.93,58.19,8.19
Plettenberg Bay,12,ZA,1540694787,97,-34.05,23.37,62.37,4.38
Zhaotong,92,CN,1540694787,100,27.34,103.71,48.65,3.27
Padang,20,ID,1540694788,100,-0.92,100.36,80.69,4.38
Pokhara,0,NP,1540694788,69,28.21,83.99,61.02,2.37
Isabela,44,PH,1540694788,62,10.2,122.99,86.18,5.28
Kruisfontein,0,ZA,1540694788,85,-34.0,24.73,61.65,13.0
Vikhorevka,0,RU,1540692000,44,56.12,101.17,39.2,2.24
Buala,32,SB,1540694789,97,-8.15,159.59,83.84,3.49
Onega,32,RU,1540694789,100,63.91,38.09,34.02,13.67
Marzuq,0,YE,1540694790,82,14.4,46.47,43.02,2.48
Sotouboua,48,TG,1540694790,96,8.56,0.98,70.02,2.71
Mayya,40,RU,1540692000,84,61.74,130.28,6.8,3.6
Innoshima,40,JP,1540692000,41,34.28,133.18,64.4,16.11
Umea,0,SE,1540693200,86,63.83,20.26,26.6,10.29
Haines Junction,36,CA,1540694791,94,60.75,-137.51,21.42,2.15
Manamadurai,40,IN,1540693800,74,9.68,78.45,80.6,3.36
Darmanesti,0,RO,1540693800,71,46.37,26.48,51.8,6.93
Ambon,0,FR,1540693800,93,47.55,-2.56,35.6,6.93
Staraya Kulatka,88,RU,1540694793,94,52.73,47.62,33.53,11.77
Carmen,24,PH,1540694793,67,7.2,124.8,86.72,1.81
Tena,92,EC,1540694793,92,-0.99,-77.82,58.82,2.71
Alta Gracia,40,AR,1540692000,82,-31.66,-64.43,60.8,6.93
Gorontalo,12,ID,1540694794,50,0.54,123.06,90.14,3.6
Igarka,88,RU,1540694794,94,67.47,86.57,32.72,18.92
Juegang,0,CN,1540694795,69,32.31,121.18,67.91,18.92
Sola,20,FI,1540693200,86,62.78,29.36,28.4,9.17
Durango,1,US,1540691580,84,37.28,-107.88,57.2,4.7
Morant Bay,20,JM,1540692000,74,17.88,-76.41,82.4,5.82
Ubala,0,YE,1540694796,85,13.89,44.44,41.54,1.36
Yatou,75,CM,1540692000,94,3.63,9.81,78.8,2.24
Namatanai,32,PG,1540694797,100,-3.66,152.44,82.53,3.38
Caravelas,56,BR,1540694797,100,-17.73,-39.27,77.4,26.75
Havelock,90,US,1540691880,77,34.88,-76.9,60.8,9.17
Yulara,0,AU,1540692000,44,-25.24,130.99,80.6,4.7
Thunder Bay,90,CA,1540692000,93,48.41,-89.26,42.8,8.05
Bisira,88,PA,1540694798,99,8.52,-81.71,70.61,2.04
Rurrenabaque,12,BO,1540694798,94,-14.44,-67.53,69.75,1.48
Dubrovka,75,RU,1540692000,100,59.85,30.93,35.6,15.66
Abu Zabad,0,SD,1540694799,33,12.35,29.25,73.67,12.44
Belmonte,8,PT,1540694799,87,40.36,-7.35,38.25,8.97
Businga,76,CD,1540694800,98,3.34,20.89,68.9,4.72
Kuytun,0,RU,1540694800,69,54.34,101.51,37.58,2.48
Aland,0,IN,1540694801,44,17.57,76.57,76.95,5.17
Fortuna,20,ES,1540693800,66,38.18,-1.13,57.2,16.11
Eureka,90,US,1540694100,72,40.8,-124.16,64.4,3.36
Havre-Saint-Pierre,40,CA,1540692000,85,50.23,-63.6,19.4,4.7
Alice Springs,88,AU,1540693800,37,-23.7,133.88,82.4,14.99
Aguililla,0,MX,1540694802,76,18.74,-102.79,65.88,1.81
Amos,75,CA,1540692000,68,48.57,-78.12,30.2,6.93
Srandakan,48,ID,1540694803,87,-7.94,110.25,80.37,4.61
Prince Rupert,1,CA,1540692000,75,54.32,-130.32,44.6,2.24
Nipawin,90,CA,1540692000,100,53.36,-104.02,33.8,3.36
Araouane,0,ML,1540694804,27,18.9,-3.53,61.16,2.93
Tual,0,ID,1540694804,100,-5.67,132.75,83.21,1.92
Mao,40,DO,1540692000,88,19.55,-71.08,78.8,4.7
Pamanukan,56,ID,1540694805,100,-6.28,107.82,83.39,4.72
Boguchany,0,RU,1540694805,66,58.38,97.46,35.28,4.83
Shumskiy,0,RU,1540694806,75,54.83,99.13,32.45,2.15
Mumbwa,0,ZM,1540694806,37,-14.99,27.06,63.05,12.77
Santa Rosa,92,AR,1540694722,90,-36.62,-64.29,61.16,2.71
Koboko,36,UG,1540694809,93,3.41,30.96,64.13,1.81
Krasnyy Chikoy,92,RU,1540694809,77,50.36,108.75,35.51,4.72
Lata,0,IN,1540694809,62,30.78,78.62,47.66,2.26
Kupang,44,ID,1540694810,81,-10.16,123.6,85.23,6.17
Le Portel,0,FR,1540693800,93,50.71,1.57,42.8,6.93
Kirakira,36,SB,1540694810,100,-10.46,161.92,83.39,7.63
Ewa Beach,40,US,1540691820,58,21.32,-158.01,84.2,10.29
Tura,0,IN,1540694811,81,25.52,90.21,76.55,3.27
Ust-Maya,76,RU,1540694812,60,60.42,134.54,18.59,5.95
Goderich,92,CA,1540694812,100,43.74,-81.71,38.07,11.21
Tessalit,0,ML,1540694813,44,20.2,1.01,55.04,2.59
Nadym,64,RU,1540694813,88,65.53,72.51,26.82,10.87
Malaya Vishera,92,RU,1540694814,98,58.85,32.22,33.17,8.97
Hokitika,92,NZ,1540694814,97,-42.72,170.96,54.32,5.95
Visby,56,SE,1540693200,64,57.64,18.3,37.4,12.75
Morro da Fumaca,76,BR,1540694815,100,-28.65,-49.21,64.98,19.37
Cherdyn,92,RU,1540694815,82,60.4,56.48,33.12,8.63
Quatre Cocos,20,MU,1540692000,77,-20.21,57.76,64.4,4.7
Kizema,68,RU,1540694816,96,61.11,44.83,27.95,4.5
Carutapera,100,BR,1540694816,87,-1.2,-46.02,79.79,7.4
Sarkand,76,KZ,1540694816,40,45.41,79.91,59.85,8.08
Pullman,1,US,1540691760,66,46.73,-117.17,57.2,11.41
Khani,0,GE,1540692000,62,41.96,42.96,55.4,20.8
Strezhevoy,0,RU,1540692000,100,60.73,77.6,37.4,4.47
Kotka,75,FI,1540693200,84,60.47,26.95,32.0,11.41
